{
"type": "FeatureCollection",
                                                                                
"features": [
{ "type": "Feature", "properties": { "X_COORD": 365514.0, "Y_COORD": 655676.0, "NOM": "Agboville", "DEPARTEMEN": "AGBOVILLE", "PCODE1": "CIV13", "PCODE2": "CIV1302", "PAYS": "COTE D'VOIRE", "AUTEUR": "CNTIG", "DISTRICT": "LAGUNES", "CL_DISTRIC": "AGBOVILLE", "DATE_CREAT": 2008.0, "MAJ": "OCHA-CI", "DATE_MAJ": 2012, "PCODES": "OCHA-CI", "PCODE3": "CIV130202", "REGION": "AGNEBY-TIASSA", "CHEF__LIEU": "AGBOVILLE" }, "geometry": { "type": "Point", "coordinates": [ 365514.0, 655676.0625 ] } },
{ "type": "Feature", "properties": { "X_COORD": 405023.0, "Y_COORD": 675069.0, "NOM": "Adzopé", "DEPARTEMEN": "ADZOPE", "PCODE1": "CIV13", "PCODE2": "CIV1301", "PAYS": "COTE D'VOIRE", "AUTEUR": "CNTIG", "DISTRICT": "LAGUNES", "CL_DISTRIC": "AGBOVILLE", "DATE_CREAT": 2008.0, "MAJ": "OCHA-CI", "DATE_MAJ": 2012, "PCODES": "OCHA-CI", "PCODE3": "CIV130102", "REGION": "ME", "CHEF__LIEU": "ADZOPE" }, "geometry": { "type": "Point", "coordinates": [ 405023.3125, 675068.5 ] } },
{ "type": "Feature", "properties": { "X_COORD": 8447.96, "Y_COORD": 948542.0, "NOM": "Koro", "DEPARTEMEN": "KORO", "PCODE1": "CIV05", "PCODE2": "CIV0502", "PAYS": "COTE D'VOIRE", "AUTEUR": "CNTIG", "DISTRICT": "WOROBA", "CL_DISTRIC": "SEGUELA", "DATE_CREAT": 2008.0, "MAJ": "OCHA-CI", "DATE_MAJ": 2012, "PCODES": "OCHA-CI", "PCODE3": "CIV050201", "REGION": "BAFING", "CHEF__LIEU": "TOUBA" }, "geometry": { "type": "Point", "coordinates": [ 8447.9560546875, 948542.1875 ] } },
{ "type": "Feature", "properties": { "X_COORD": -36442.6, "Y_COORD": 914053.0, "NOM": "Ouaninou", "DEPARTEMEN": "OUANINOU", "PCODE1": "CIV05", "PCODE2": "CIV0502", "PAYS": "COTE D'VOIRE", "AUTEUR": "CNTIG", "DISTRICT": "WOROBA", "CL_DISTRIC": "SEGUELA", "DATE_CREAT": 2008.0, "MAJ": "OCHA-CI", "DATE_MAJ": 2012, "PCODES": "OCHA-CI", "PCODE3": "CIV050203", "REGION": "BAFING", "CHEF__LIEU": "TOUBA" }, "geometry": { "type": "Point", "coordinates": [ -36442.62890625, 914052.6875 ] } },
{ "type": "Feature", "properties": { "X_COORD": -15586.0, "Y_COORD": 918344.0, "NOM": "Touba", "DEPARTEMEN": "TOUBA", "PCODE1": "CIV05", "PCODE2": "CIV0502", "PAYS": "COTE D'VOIRE", "AUTEUR": "CNTIG", "DISTRICT": "WOROBA", "CL_DISTRIC": "SEGUELA", "DATE_CREAT": 2008.0, "MAJ": "OCHA-CI", "DATE_MAJ": 2012, "PCODES": "OCHA-CI", "PCODE3": "CIV050202", "REGION": "BAFING", "CHEF__LIEU": "TOUBA" }, "geometry": { "type": "Point", "coordinates": [ -15586.0234375, 918343.5 ] } },
{ "type": "Feature", "properties": { "X_COORD": 98816.2, "Y_COORD": 524250.0, "NOM": "San Pedro", "DEPARTEMEN": "SAN PEDRO", "PCODE1": "CIV12", "PCODE2": "CIV1202", "PAYS": "COTE D'VOIRE", "AUTEUR": "CNTIG", "DISTRICT": "BAS-SASSANDRA", "CL_DISTRIC": "SAN PEDRO", "DATE_CREAT": 2008.0, "MAJ": "OCHA-CI", "DATE_MAJ": 2012, "PCODES": "OCHA-CI", "PCODE3": "CIV120202", "REGION": "SAN PEDRO", "CHEF__LIEU": "SAN PEDRO" }, "geometry": { "type": "Point", "coordinates": [ 98816.1875, 526106.300485819927417 ] } },
{ "type": "Feature", "properties": { "X_COORD": 158076.0, "Y_COORD": 547685.0, "NOM": "Sassandra", "DEPARTEMEN": "SASSANDRA", "PCODE1": "CIV12", "PCODE2": "CIV1203", "PAYS": "COTE D'VOIRE", "AUTEUR": "CNTIG", "DISTRICT": "BAS-SASSANDRA", "CL_DISTRIC": "SAN PEDRO", "DATE_CREAT": 2008.0, "MAJ": "OCHA-CI", "DATE_MAJ": 2012, "PCODES": "OCHA-CI", "PCODE3": "CIV120301", "REGION": "GBOKLE", "CHEF__LIEU": "SASSANDRA" }, "geometry": { "type": "Point", "coordinates": [ 158076.3125, 547684.625 ] } },
{ "type": "Feature", "properties": { "X_COORD": 15779.9, "Y_COORD": 488906.0, "NOM": "Tabou", "DEPARTEMEN": "TABOU", "PCODE1": "CIV12", "PCODE2": "CIV1202", "PAYS": "COTE D'VOIRE", "AUTEUR": "CNTIG", "DISTRICT": "BAS-SASSANDRA", "CL_DISTRIC": "SAN PEDRO", "DATE_CREAT": 2008.0, "MAJ": "OCHA-CI", "DATE_MAJ": 2012, "PCODES": "OCHA-CI", "PCODE3": "CIV120201", "REGION": "SAN PEDRO", "CHEF__LIEU": "SAN PEDRO" }, "geometry": { "type": "Point", "coordinates": [ 16151.221034663987666, 490391.009138655965216 ] } },
{ "type": "Feature", "properties": { "X_COORD": 101668.0, "Y_COORD": 640169.0, "NOM": "Soubre", "DEPARTEMEN": "SOUBRE", "PCODE1": "CIV12", "PCODE2": "CIV1201", "PAYS": "COTE D'VOIRE", "AUTEUR": "CNTIG", "DISTRICT": "BAS-SASSANDRA", "CL_DISTRIC": "SAN PEDRO", "DATE_CREAT": 2008.0, "MAJ": "OCHA-CI", "DATE_MAJ": 2012, "PCODES": "OCHA-CI", "PCODE3": "CIV120101", "REGION": "NAWA", "CHEF__LIEU": "SOUBRE" }, "geometry": { "type": "Point", "coordinates": [ 101667.75, 640168.9375 ] } },
{ "type": "Feature", "properties": { "X_COORD": -1213.9, "Y_COORD": 1055780.0, "NOM": "Odienne", "DEPARTEMEN": "ODIENNE", "PCODE1": "CIV02", "PCODE2": "CIV0202", "PAYS": "COTE D'VOIRE", "AUTEUR": "CNTIG", "DISTRICT": "DENGUELE", "CL_DISTRIC": "ODIENNE", "DATE_CREAT": 2008.0, "MAJ": "OCHA-CI", "DATE_MAJ": 2012, "PCODES": "OCHA-CI", "PCODE3": "CIV020203", "REGION": "KABADOUGOU", "CHEF__LIEU": "ODIENNE" }, "geometry": { "type": "Point", "coordinates": [ -1213.8990478515625, 1055784.75 ] } },
{ "type": "Feature", "properties": { "X_COORD": -688.344, "Y_COORD": 1089650.0, "NOM": "Samatiguila", "DEPARTEMEN": "SAMATIGUILA", "PCODE1": "CIV02", "PCODE2": "CIV0202", "PAYS": "COTE D'VOIRE", "AUTEUR": "CNTIG", "DISTRICT": "DENGUELE", "CL_DISTRIC": "ODIENNE", "DATE_CREAT": 2008.0, "MAJ": "OCHA-CI", "DATE_MAJ": 2012, "PCODES": "OCHA-CI", "PCODE3": "CIV020201", "REGION": "KABADOUGOU", "CHEF__LIEU": "ODIENNE" }, "geometry": { "type": "Point", "coordinates": [ -688.343994140625, 1089645.5 ] } },
{ "type": "Feature", "properties": { "X_COORD": -30194.5, "Y_COORD": 1110290.0, "NOM": "Minignan", "DEPARTEMEN": "MINIGNAN", "PCODE1": "CIV02", "PCODE2": "CIV0201", "PAYS": "COTE D'VOIRE", "AUTEUR": "CNTIG", "DISTRICT": "DENGUELE", "CL_DISTRIC": "ODIENNE", "DATE_CREAT": 2008.0, "MAJ": "OCHA-CI", "DATE_MAJ": 2012, "PCODES": "OCHA-CI", "PCODE3": "CIV020101", "REGION": "FOLON", "CHEF__LIEU": "MINIGNAN" }, "geometry": { "type": "Point", "coordinates": [ -30194.4921875, 1110292.375 ] } },
{ "type": "Feature", "properties": { "X_COORD": 66689.8, "Y_COORD": 1065250.0, "NOM": "Madinani", "DEPARTEMEN": "MADINANI", "PCODE1": "CIV02", "PCODE2": "CIV0202", "PAYS": "COTE D'VOIRE", "AUTEUR": "CNTIG", "DISTRICT": "DENGUELE", "CL_DISTRIC": "ODIENNE", "DATE_CREAT": 2008.0, "MAJ": "OCHA-CI", "DATE_MAJ": 2012, "PCODES": "OCHA-CI", "PCODE3": "CIV020202", "REGION": "KABADOUGOU", "CHEF__LIEU": "ODIENNE" }, "geometry": { "type": "Point", "coordinates": [ 66689.8203125, 1065245.125 ] } },
{ "type": "Feature", "properties": { "X_COORD": 174406.0, "Y_COORD": 678471.0, "NOM": "Gagnoa", "DEPARTEMEN": "GAGNOA", "PCODE1": "CIV11", "PCODE2": "CIV1101", "PAYS": "COTE D'VOIRE", "AUTEUR": "CNTIG", "DISTRICT": "GOH-DJIBOUA", "CL_DISTRIC": "GAGNOA", "DATE_CREAT": 2008.0, "MAJ": "OCHA-CI", "DATE_MAJ": 2012, "PCODES": "OCHA-CI", "PCODE3": "CIV110102", "REGION": "GOH", "CHEF__LIEU": "GAGNOA" }, "geometry": { "type": "Point", "coordinates": [ 174405.578125, 678470.6875 ] } },
{ "type": "Feature", "properties": { "X_COORD": 231788.0, "Y_COORD": 705647.0, "NOM": "Oume", "DEPARTEMEN": "OUME", "PCODE1": "CIV11", "PCODE2": "CIV1101", "PAYS": "COTE D'VOIRE", "AUTEUR": "CNTIG", "DISTRICT": "GOH-DJIBOUA", "CL_DISTRIC": "GAGNOA", "DATE_CREAT": 2008.0, "MAJ": "OCHA-CI", "DATE_MAJ": 2012, "PCODES": "OCHA-CI", "PCODE3": "CIV110101", "REGION": "GOH", "CHEF__LIEU": "GAGNOA" }, "geometry": { "type": "Point", "coordinates": [ 231787.625, 705646.625 ] } },
{ "type": "Feature", "properties": { "X_COORD": 118530.0, "Y_COORD": 762640.0, "NOM": "Daloa", "DEPARTEMEN": "DALOA", "PCODE1": "CIV08", "PCODE2": "CIV0801", "PAYS": "COTE D'VOIRE", "AUTEUR": "CNTIG", "DISTRICT": "SASSANDRA-MARAHOUE", "CL_DISTRIC": "DALOA", "DATE_CREAT": 2008.0, "MAJ": "OCHA-CI", "DATE_MAJ": 2012, "PCODES": "OCHA-CI", "PCODE3": "CIV080102", "REGION": "HAUT-SASSANDRA", "CHEF__LIEU": "DALOA" }, "geometry": { "type": "Point", "coordinates": [ 118530.3828125, 762640.4375 ] } },
{ "type": "Feature", "properties": { "X_COORD": 71979.1, "Y_COORD": 749392.0, "NOM": "Zoukougbeu", "DEPARTEMEN": "ZOUKOUGBEU", "PCODE1": "CIV08", "PCODE2": "CIV0801", "PAYS": "COTE D'VOIRE", "AUTEUR": "CNTIG", "DISTRICT": "SASSANDRA-MARAHOUE", "CL_DISTRIC": "DALOA", "DATE_CREAT": 2008.0, "MAJ": "OCHA-CI", "DATE_MAJ": 2012, "PCODES": "OCHA-CI", "PCODE3": "CIV080103", "REGION": "HAUT-SASSANDRA", "CHEF__LIEU": "DALOA" }, "geometry": { "type": "Point", "coordinates": [ 71979.140625, 749391.8125 ] } },
{ "type": "Feature", "properties": { "X_COORD": 103274.0, "Y_COORD": 718086.0, "NOM": "Issia", "DEPARTEMEN": "ISSIA", "PCODE1": "CIV08", "PCODE2": "CIV0801", "PAYS": "COTE D'VOIRE", "AUTEUR": "CNTIG", "DISTRICT": "SASSANDRA-MARAHOUE", "CL_DISTRIC": "DALOA", "DATE_CREAT": 2008.0, "MAJ": "OCHA-CI", "DATE_MAJ": 2012, "PCODES": "OCHA-CI", "PCODE3": "CIV080104", "REGION": "HAUT-SASSANDRA", "CHEF__LIEU": "DALOA" }, "geometry": { "type": "Point", "coordinates": [ 103273.78125, 718086.0625 ] } },
{ "type": "Feature", "properties": { "X_COORD": 115766.0, "Y_COORD": 816703.0, "NOM": "Vavoua", "DEPARTEMEN": "VAVOUA", "PCODE1": "CIV08", "PCODE2": "CIV0801", "PAYS": "COTE D'VOIRE", "AUTEUR": "CNTIG", "DISTRICT": "SASSANDRA-MARAHOUE", "CL_DISTRIC": "DALOA", "DATE_CREAT": 2008.0, "MAJ": "OCHA-CI", "DATE_MAJ": 2012, "PCODES": "OCHA-CI", "PCODE3": "CIV080101", "REGION": "HAUT-SASSANDRA", "CHEF__LIEU": "DALOA" }, "geometry": { "type": "Point", "coordinates": [ 115765.5390625, 816702.6875 ] } },
{ "type": "Feature", "properties": { "X_COORD": 254371.0, "Y_COORD": 792265.0, "NOM": "Tiebissou", "DEPARTEMEN": "TIEBISSOU", "PCODE1": "CIV07", "PCODE2": "CIV0702", "PAYS": "COTE D'VOIRE", "AUTEUR": "CNTIG", "DISTRICT": "LACS", "CL_DISTRIC": "DIMBOKRO", "DATE_CREAT": 2008.0, "MAJ": "OCHA-CI", "DATE_MAJ": 2012, "PCODES": "OCHA-CI", "PCODE3": "CIV070202", "REGION": "BELIER", "CHEF__LIEU": "TOUMODI" }, "geometry": { "type": "Point", "coordinates": [ 254371.15625, 792264.5 ] } },
{ "type": "Feature", "properties": { "X_COORD": 276962.0, "Y_COORD": 724925.0, "NOM": "Toumodi", "DEPARTEMEN": "TOUMODI", "PCODE1": "CIV07", "PCODE2": "CIV0702", "PAYS": "COTE D'VOIRE", "AUTEUR": "CNTIG", "DISTRICT": "LACS", "CL_DISTRIC": "DIMBOKRO", "DATE_CREAT": 2008.0, "MAJ": "OCHA-CI", "DATE_MAJ": 2012, "PCODES": "OCHA-CI", "PCODE3": "CIV070203", "REGION": "BELIER", "CHEF__LIEU": "TOUMODI" }, "geometry": { "type": "Point", "coordinates": [ 276961.71875, 724925.0625 ] } },
{ "type": "Feature", "properties": { "X_COORD": 248348.0, "Y_COORD": 754101.0, "NOM": "Yamoussoukro", "DEPARTEMEN": "YAMOUSSOUKRO", "PCODE1": "CIV10", "PCODE2": "CIV1001", "PAYS": "COTE D'VOIRE", "AUTEUR": "CNTIG", "DISTRICT": "DISTRICT AUTONOME DE YAMOUSSOUKRO", "CL_DISTRIC": "YAMOUSSOUKRO", "DATE_CREAT": 2008.0, "MAJ": "OCHA-CI", "DATE_MAJ": 2012, "PCODES": "OCHA-CI", "PCODE3": "CIV100102", "REGION": "DISTRICT AUTONOME DE YAMOUSSOUKRO", "CHEF__LIEU": "YAMOUSSOUKRO" }, "geometry": { "type": "Point", "coordinates": [ 248347.671875, 754101.0625 ] } },
{ "type": "Feature", "properties": { "X_COORD": 291040.0, "Y_COORD": 787340.0, "NOM": "Didievi", "DEPARTEMEN": "DIDIEVI", "PCODE1": "CIV07", "PCODE2": "CIV0702", "PAYS": "COTE D'VOIRE", "AUTEUR": "CNTIG", "DISTRICT": "LACS", "CL_DISTRIC": "DIMBOKRO", "DATE_CREAT": 2008.0, "MAJ": "OCHA-CI", "DATE_MAJ": 2012, "PCODES": "OCHA-CI", "PCODE3": "CIV070201", "REGION": "BELIER", "CHEF__LIEU": "TOUMODI" }, "geometry": { "type": "Point", "coordinates": [ 291039.6875, 787340.1875 ] } },
{ "type": "Feature", "properties": { "X_COORD": 384553.0, "Y_COORD": 579681.0, "NOM": "ABIDJAN", "DEPARTEMEN": "ABIDJAN", "PCODE1": "CIV14", "PCODE2": "CIV1401", "PAYS": "COTE D'VOIRE", "AUTEUR": "CNTIG", "DISTRICT": "DISTRICT AUTONOME D'ABIDJAN", "CL_DISTRIC": "ABIDJAN", "DATE_CREAT": 2008.0, "MAJ": "OCHA-CI", "DATE_MAJ": 2012, "PCODES": "OCHA-CI", "PCODE3": "CIV140101", "REGION": "DISTRICT AUTONOME D'ABIDJAN", "CHEF__LIEU": "ABIDJAN" }, "geometry": { "type": "Point", "coordinates": [ 384552.6875, 579681.0 ] } },
{ "type": "Feature", "properties": { "X_COORD": 426516.0, "Y_COORD": 608171.0, "NOM": "Alépé", "DEPARTEMEN": "ALEPE", "PCODE1": "CIV13", "PCODE2": "CIV1301", "PAYS": "COTE D'VOIRE", "AUTEUR": "CNTIG", "DISTRICT": "LAGUNES", "CL_DISTRIC": "AGBOVILLE", "DATE_CREAT": 2008.0, "MAJ": "OCHA-CI", "DATE_MAJ": 2012, "PCODES": "OCHA-CI", "PCODE3": "CIV130104", "REGION": "ME", "CHEF__LIEU": "ADZOPE" }, "geometry": { "type": "Point", "coordinates": [ 426516.09375, 608170.9375 ] } },
{ "type": "Feature", "properties": { "X_COORD": 347277.0, "Y_COORD": 588410.0, "NOM": "Dabou", "DEPARTEMEN": "DABOU", "PCODE1": "CIV13", "PCODE2": "CIV1303", "PAYS": "COTE D'VOIRE", "AUTEUR": "CNTIG", "DISTRICT": "LAGUNES", "CL_DISTRIC": "AGBOVILLE", "DATE_CREAT": 2008.0, "MAJ": "OCHA-CI", "DATE_MAJ": 2012, "PCODES": "OCHA-CI", "PCODE3": "CIV130302", "REGION": "GRANDS PONTS", "CHEF__LIEU": "DABOU" }, "geometry": { "type": "Point", "coordinates": [ 347276.96875, 588409.625 ] } },
{ "type": "Feature", "properties": { "X_COORD": 325456.0, "Y_COORD": 625596.0, "NOM": "Sikensi", "DEPARTEMEN": "SIKENSI", "PCODE1": "CIV13", "PCODE2": "CIV1302", "PAYS": "COTE D'VOIRE", "AUTEUR": "CNTIG", "DISTRICT": "LAGUNES", "CL_DISTRIC": "AGBOVILLE", "DATE_CREAT": 2008.0, "MAJ": "OCHA-CI", "DATE_MAJ": 2012, "PCODES": "OCHA-CI", "PCODE3": "CIV130203", "REGION": "AGNEBY-TIASSA", "CHEF__LIEU": "AGBOVILLE" }, "geometry": { "type": "Point", "coordinates": [ 325455.71875, 625595.625 ] } },
{ "type": "Feature", "properties": { "X_COORD": 278554.0, "Y_COORD": 580621.0, "NOM": "Grand Lahou", "DEPARTEMEN": "GRAND-LAHOU", "PCODE1": "CIV13", "PCODE2": "CIV1303", "PAYS": "COTE D'VOIRE", "AUTEUR": "CNTIG", "DISTRICT": "LAGUNES", "CL_DISTRIC": "AGBOVILLE", "DATE_CREAT": 2008.0, "MAJ": "OCHA-CI", "DATE_MAJ": 2012, "PCODES": "OCHA-CI", "PCODE3": "CIV130301", "REGION": "GRANDS PONTS", "CHEF__LIEU": "DABOU" }, "geometry": { "type": "Point", "coordinates": [ 278553.65625, 580621.125 ] } },
{ "type": "Feature", "properties": { "X_COORD": 342997.0, "Y_COORD": 575148.0, "NOM": "Jacqueville", "DEPARTEMEN": "JACQUEVILLE", "PCODE1": "CIV13", "PCODE2": "CIV1303", "PAYS": "COTE D'VOIRE", "AUTEUR": "CNTIG", "DISTRICT": "LAGUNES", "CL_DISTRIC": "AGBOVILLE", "DATE_CREAT": 2008.0, "MAJ": "OCHA-CI", "DATE_MAJ": 2012, "PCODES": "OCHA-CI", "PCODE3": "CIV130303", "REGION": "GRANDS PONTS", "CHEF__LIEU": "DABOU" }, "geometry": { "type": "Point", "coordinates": [ 342997.375, 575148.4375 ] } },
{ "type": "Feature", "properties": { "X_COORD": 298453.0, "Y_COORD": 651464.0, "NOM": "Tiassalé", "DEPARTEMEN": "TIASSALE", "PCODE1": "CIV13", "PCODE2": "CIV1302", "PAYS": "COTE D'VOIRE", "AUTEUR": "CNTIG", "DISTRICT": "LAGUNES", "CL_DISTRIC": "AGBOVILLE", "DATE_CREAT": 2008.0, "MAJ": "OCHA-CI", "DATE_MAJ": 2012, "PCODES": "OCHA-CI", "PCODE3": "CIV130201", "REGION": "AGNEBY-TIASSA", "CHEF__LIEU": "AGBOVILLE" }, "geometry": { "type": "Point", "coordinates": [ 298452.6875, 651464.0625 ] } },
{ "type": "Feature", "properties": { "X_COORD": 195787.0, "Y_COORD": 772728.0, "NOM": "Bouafle", "DEPARTEMEN": "BOUAFLE", "PCODE1": "CIV08", "PCODE2": "CIV0802", "PAYS": "COTE D'VOIRE", "AUTEUR": "CNTIG", "DISTRICT": "SASSANDRA-MARAHOUE", "CL_DISTRIC": "DALOA", "DATE_CREAT": 2008.0, "MAJ": "OCHA-CI", "DATE_MAJ": 2012, "PCODES": "OCHA-CI", "PCODE3": "CIV080202", "REGION": "MARAHOUE", "CHEF__LIEU": "BOUAFLE" }, "geometry": { "type": "Point", "coordinates": [ 195786.921875, 772728.3125 ] } },
{ "type": "Feature", "properties": { "X_COORD": 178045.0, "Y_COORD": 733001.0, "NOM": "Sinfra", "DEPARTEMEN": "SINFRA", "PCODE1": "CIV08", "PCODE2": "CIV0802", "PAYS": "COTE D'VOIRE", "AUTEUR": "CNTIG", "DISTRICT": "SASSANDRA-MARAHOUE", "CL_DISTRIC": "DALOA", "DATE_CREAT": 2008.0, "MAJ": "OCHA-CI", "DATE_MAJ": 2012, "PCODES": "OCHA-CI", "PCODE3": "CIV080203", "REGION": "MARAHOUE", "CHEF__LIEU": "BOUAFLE" }, "geometry": { "type": "Point", "coordinates": [ 178045.375, 733000.75 ] } },
{ "type": "Feature", "properties": { "X_COORD": 164292.0, "Y_COORD": 821874.0, "NOM": "Zuenoula", "DEPARTEMEN": "ZUENOULA", "PCODE1": "CIV08", "PCODE2": "CIV0802", "PAYS": "COTE D'VOIRE", "AUTEUR": "CNTIG", "DISTRICT": "SASSANDRA-MARAHOUE", "CL_DISTRIC": "DALOA", "DATE_CREAT": 2008.0, "MAJ": "OCHA-CI", "DATE_MAJ": 2012, "PCODES": "OCHA-CI", "PCODE3": "CIV080201", "REGION": "MARAHOUE", "CHEF__LIEU": "BOUAFLE" }, "geometry": { "type": "Point", "coordinates": [ 164292.21875, 821874.0625 ] } },
{ "type": "Feature", "properties": { "X_COORD": 3528.46, "Y_COORD": 777357.0, "NOM": "Bangolo", "DEPARTEMEN": "BANGOLO", "PCODE1": "CIV06", "PCODE2": "CIV0602", "PAYS": "COTE D'VOIRE", "AUTEUR": "CNTIG", "DISTRICT": "MONTAGNES", "CL_DISTRIC": "MAN", "DATE_CREAT": 2008.0, "MAJ": "OCHA-CI", "DATE_MAJ": 2012, "PCODES": "OCHA-CI", "PCODE3": "CIV060202", "REGION": "GUEMON", "CHEF__LIEU": "DUEKOUE" }, "geometry": { "type": "Point", "coordinates": [ 3528.4560546875, 777357.0625 ] } },
{ "type": "Feature", "properties": { "X_COORD": -9624.6, "Y_COORD": 858626.0, "NOM": "Biankouma", "DEPARTEMEN": "BIANKOUMA", "PCODE1": "CIV06", "PCODE2": "CIV0601", "PAYS": "COTE D'VOIRE", "AUTEUR": "CNTIG", "DISTRICT": "MONTAGNES", "CL_DISTRIC": "MAN", "DATE_CREAT": 2008.0, "MAJ": "OCHA-CI", "DATE_MAJ": 2012, "PCODES": "OCHA-CI", "PCODE3": "CIV060101", "REGION": "TONKPI", "CHEF__LIEU": "MAN" }, "geometry": { "type": "Point", "coordinates": [ -9624.5986328125, 858626.0 ] } },
{ "type": "Feature", "properties": { "X_COORD": -69613.1, "Y_COORD": 806043.0, "NOM": "Danane", "DEPARTEMEN": "DANANE", "PCODE1": "CIV06", "PCODE2": "CIV0601", "PAYS": "COTE D'VOIRE", "AUTEUR": "CNTIG", "DISTRICT": "MONTAGNES", "CL_DISTRIC": "MAN", "DATE_CREAT": 2008.0, "MAJ": "OCHA-CI", "DATE_MAJ": 2012, "PCODES": "OCHA-CI", "PCODE3": "CIV060103", "REGION": "TONKPI", "CHEF__LIEU": "MAN" }, "geometry": { "type": "Point", "coordinates": [ -69613.078125, 806043.3125 ] } },
{ "type": "Feature", "properties": { "X_COORD": -76334.5, "Y_COORD": 767532.0, "NOM": "Zouan Hounien", "DEPARTEMEN": "ZOUAN-HOUNIEN", "PCODE1": "CIV06", "PCODE2": "CIV0601", "PAYS": "COTE D'VOIRE", "AUTEUR": "CNTIG", "DISTRICT": "MONTAGNES", "CL_DISTRIC": "MAN", "DATE_CREAT": 2008.0, "MAJ": "OCHA-CI", "DATE_MAJ": 2012, "PCODES": "OCHA-CI", "PCODE3": "CIV060104", "REGION": "TONKPI", "CHEF__LIEU": "MAN" }, "geometry": { "type": "Point", "coordinates": [ -76334.4765625, 767531.5625 ] } },
{ "type": "Feature", "properties": { "X_COORD": 32577.7, "Y_COORD": 803934.0, "NOM": "Kouibly", "DEPARTEMEN": "KOUIBLY", "PCODE1": "CIV06", "PCODE2": "CIV0602", "PAYS": "COTE D'VOIRE", "AUTEUR": "CNTIG", "DISTRICT": "MONTAGNES", "CL_DISTRIC": "MAN", "DATE_CREAT": 2008.0, "MAJ": "OCHA-CI", "DATE_MAJ": 2012, "PCODES": "OCHA-CI", "PCODE3": "CIV060201", "REGION": "GUEMON", "CHEF__LIEU": "DUEKOUE" }, "geometry": { "type": "Point", "coordinates": [ 32577.6953125, 803933.9375 ] } },
{ "type": "Feature", "properties": { "X_COORD": -3261.71, "Y_COORD": 820854.0, "NOM": "Man", "DEPARTEMEN": "MAN", "PCODE1": "CIV06", "PCODE2": "CIV0601", "PAYS": "COTE D'VOIRE", "AUTEUR": "CNTIG", "DISTRICT": "MONTAGNES", "CL_DISTRIC": "MAN", "DATE_CREAT": 2008.0, "MAJ": "OCHA-CI", "DATE_MAJ": 2012, "PCODES": "OCHA-CI", "PCODE3": "CIV060102", "REGION": "TONKPI", "CHEF__LIEU": "MAN" }, "geometry": { "type": "Point", "coordinates": [ -3261.714111328125, 820854.1875 ] } },
{ "type": "Feature", "properties": { "X_COORD": 19082.4, "Y_COORD": 747657.0, "NOM": "Duekoue", "DEPARTEMEN": "DUEKOUE", "PCODE1": "CIV06", "PCODE2": "CIV0602", "PAYS": "COTE D'VOIRE", "AUTEUR": "CNTIG", "DISTRICT": "MONTAGNES", "CL_DISTRIC": "MAN", "DATE_CREAT": 2008.0, "MAJ": "OCHA-CI", "DATE_MAJ": 2012, "PCODES": "OCHA-CI", "PCODE3": "CIV060203", "REGION": "GUEMON", "CHEF__LIEU": "DUEKOUE" }, "geometry": { "type": "Point", "coordinates": [ 19082.35546875, 747657.125 ] } },
{ "type": "Feature", "properties": { "X_COORD": -54389.1, "Y_COORD": 728904.0, "NOM": "Blolequin", "DEPARTEMEN": "BLOLEQUIN", "PCODE1": "CIV06", "PCODE2": "CIV0603", "PAYS": "COTE D'VOIRE", "AUTEUR": "CNTIG", "DISTRICT": "MONTAGNES", "CL_DISTRIC": "MAN", "DATE_CREAT": 2008.0, "MAJ": "OCHA-CI", "DATE_MAJ": 2012, "PCODES": "OCHA-CI", "PCODE3": "CIV060301", "REGION": "CAVALLY", "CHEF__LIEU": "GUIGLO" }, "geometry": { "type": "Point", "coordinates": [ -54389.09375, 728904.0 ] } },
{ "type": "Feature", "properties": { "X_COORD": 3134.35, "Y_COORD": 725452.0, "NOM": "Guiglo", "DEPARTEMEN": "GUIGLO", "PCODE1": "CIV06", "PCODE2": "CIV0603", "PAYS": "COTE D'VOIRE", "AUTEUR": "CNTIG", "DISTRICT": "MONTAGNES", "CL_DISTRIC": "MAN", "DATE_CREAT": 2008.0, "MAJ": "OCHA-CI", "DATE_MAJ": 2012, "PCODES": "OCHA-CI", "PCODE3": "CIV060302", "REGION": "CAVALLY", "CHEF__LIEU": "GUIGLO" }, "geometry": { "type": "Point", "coordinates": [ 2020.018320718667383, 725654.168277625110932 ] } },
{ "type": "Feature", "properties": { "X_COORD": -99518.1, "Y_COORD": 730645.0, "NOM": "Toulepleu", "DEPARTEMEN": "TOULEPLEU", "PCODE1": "CIV06", "PCODE2": "CIV0603", "PAYS": "COTE D'VOIRE", "AUTEUR": "CNTIG", "DISTRICT": "MONTAGNES", "CL_DISTRIC": "MAN", "DATE_CREAT": 2008.0, "MAJ": "OCHA-CI", "DATE_MAJ": 2012, "PCODES": "OCHA-CI", "PCODE3": "CIV060303", "REGION": "CAVALLY", "CHEF__LIEU": "GUIGLO" }, "geometry": { "type": "Point", "coordinates": [ -99518.1484375, 730645.125 ] } },
{ "type": "Feature", "properties": { "X_COORD": 445495.0, "Y_COORD": 744061.0, "NOM": "Abengourou", "DEPARTEMEN": "ABENGOUROU", "PCODE1": "CIV09", "PCODE2": "CIV0901", "PAYS": "COTE D'VOIRE", "AUTEUR": "CNTIG", "DISTRICT": "COMOE", "CL_DISTRIC": "ABENGOUROU", "DATE_CREAT": 2008.0, "MAJ": "OCHA-CI", "DATE_MAJ": 2012, "PCODES": "OCHA-CI", "PCODE3": "CIV090102", "REGION": "INDENIE-DJUABLIN", "CHEF__LIEU": "ABENGOUROU" }, "geometry": { "type": "Point", "coordinates": [ 445495.375, 744061.3125 ] } },
{ "type": "Feature", "properties": { "X_COORD": 454367.0, "Y_COORD": 672386.0, "NOM": "Bettié", "DEPARTEMEN": "BETTIE", "PCODE1": "CIV09", "PCODE2": "CIV0901", "PAYS": "COTE D'VOIRE", "AUTEUR": "CNTIG", "DISTRICT": "COMOE", "CL_DISTRIC": "ABENGOUROU", "DATE_CREAT": 2008.0, "MAJ": "OCHA-CI", "DATE_MAJ": 2012, "PCODES": "OCHA-CI", "PCODE3": "CIV090103", "REGION": "INDENIE-DJUABLIN", "CHEF__LIEU": "ABENGOUROU" }, "geometry": { "type": "Point", "coordinates": [ 454366.8125, 672385.8125 ] } },
{ "type": "Feature", "properties": { "X_COORD": 477822.0, "Y_COORD": 788060.0, "NOM": "Agnibilekrou", "DEPARTEMEN": "AGNIBILEKROU", "PCODE1": "CIV09", "PCODE2": "CIV0901", "PAYS": "COTE D'VOIRE", "AUTEUR": "CNTIG", "DISTRICT": "COMOE", "CL_DISTRIC": "ABENGOUROU", "DATE_CREAT": 2008.0, "MAJ": "OCHA-CI", "DATE_MAJ": 2012, "PCODES": "OCHA-CI", "PCODE3": "CIV090101", "REGION": "INDENIE-DJUABLIN", "CHEF__LIEU": "ABENGOUROU" }, "geometry": { "type": "Point", "coordinates": [ 477822.375, 788059.5625 ] } },
{ "type": "Feature", "properties": { "X_COORD": 334948.0, "Y_COORD": 780942.0, "NOM": "Bocanda", "DEPARTEMEN": "BOCANDA", "PCODE1": "CIV07", "PCODE2": "CIV0703", "PAYS": "COTE D'VOIRE", "AUTEUR": "CNTIG", "DISTRICT": "LACS", "CL_DISTRIC": "DIMBOKRO", "DATE_CREAT": 2008.0, "MAJ": "OCHA-CI", "DATE_MAJ": 2012, "PCODES": "OCHA-CI", "PCODE3": "CIV070301", "REGION": "N'ZI", "CHEF__LIEU": "DIMBOKRO" }, "geometry": { "type": "Point", "coordinates": [ 334947.8125, 780941.5 ] } },
{ "type": "Feature", "properties": { "X_COORD": 368244.0, "Y_COORD": 733530.0, "NOM": "Bongouanou", "DEPARTEMEN": "BONGOUANOU", "PCODE1": "CIV07", "PCODE2": "CIV0703", "PAYS": "COTE D'VOIRE", "AUTEUR": "CNTIG", "DISTRICT": "LACS", "CL_DISTRIC": "DIMBOKRO", "DATE_CREAT": 2008.0, "MAJ": "OCHA-CI", "DATE_MAJ": 2012, "PCODES": "OCHA-CI", "PCODE3": "CIV070303", "REGION": "N'ZI", "CHEF__LIEU": "DIMBOKRO" }, "geometry": { "type": "Point", "coordinates": [ 368244.03125, 733529.625 ] } },
{ "type": "Feature", "properties": { "X_COORD": 392328.0, "Y_COORD": 737449.0, "NOM": "Arrah", "DEPARTEMEN": "ARRAH", "PCODE1": "CIV07", "PCODE2": "CIV0703", "PAYS": "COTE D'VOIRE", "AUTEUR": "CNTIG", "DISTRICT": "LACS", "CL_DISTRIC": "DIMBOKRO", "DATE_CREAT": 2008.0, "MAJ": "OCHA-CI", "DATE_MAJ": 2012, "PCODES": "OCHA-CI", "PCODE3": "CIV070304", "REGION": "N'ZI", "CHEF__LIEU": "DIMBOKRO" }, "geometry": { "type": "Point", "coordinates": [ 392328.21875, 737449.25 ] } },
{ "type": "Feature", "properties": { "X_COORD": 350389.0, "Y_COORD": 715580.0, "NOM": "M'Batto", "DEPARTEMEN": "M'BATTO", "PCODE1": "CIV07", "PCODE2": "CIV0703", "PAYS": "COTE D'VOIRE", "AUTEUR": "CNTIG", "DISTRICT": "LACS", "CL_DISTRIC": "DIMBOKRO", "DATE_CREAT": 2008.0, "MAJ": "OCHA-CI", "DATE_MAJ": 2012, "PCODES": "OCHA-CI", "PCODE3": "CIV070305", "REGION": "N'ZI", "CHEF__LIEU": "DIMBOKRO" }, "geometry": { "type": "Point", "coordinates": [ 350389.40625, 715579.5 ] } },
{ "type": "Feature", "properties": { "X_COORD": 311912.0, "Y_COORD": 734846.0, "NOM": "Dimbokro", "DEPARTEMEN": "DIMBOKRO", "PCODE1": "CIV07", "PCODE2": "CIV0703", "PAYS": "COTE D'VOIRE", "AUTEUR": "CNTIG", "DISTRICT": "LACS", "CL_DISTRIC": "DIMBOKRO", "DATE_CREAT": 2008.0, "MAJ": "OCHA-CI", "DATE_MAJ": 2012, "PCODES": "OCHA-CI", "PCODE3": "CIV070302", "REGION": "N'ZI", "CHEF__LIEU": "DIMBOKRO" }, "geometry": { "type": "Point", "coordinates": [ 311912.40625, 734845.9375 ] } },
{ "type": "Feature", "properties": { "X_COORD": 352493.0, "Y_COORD": 824173.0, "NOM": "M'Bahiakro", "DEPARTEMEN": "M'BAHIAKRO", "PCODE1": "CIV07", "PCODE2": "CIV0701", "PAYS": "COTE D'VOIRE", "AUTEUR": "CNTIG", "DISTRICT": "LACS", "CL_DISTRIC": "DIMBOKRO", "DATE_CREAT": 2008.0, "MAJ": "OCHA-CI", "DATE_MAJ": 2012, "PCODES": "OCHA-CI", "PCODE3": "CIV070102", "REGION": "IFFOU", "CHEF__LIEU": "DAOUKRO" }, "geometry": { "type": "Point", "coordinates": [ 352493.34375, 824173.0625 ] } },
{ "type": "Feature", "properties": { "X_COORD": 117751.0, "Y_COORD": 1054110.0, "NOM": "Boundiali", "DEPARTEMEN": "BOUNDIALI", "PCODE1": "CIV01", "PCODE2": "CIV0101", "PAYS": "COTE D'VOIRE", "AUTEUR": "CNTIG", "DISTRICT": "SAVANES", "CL_DISTRIC": "KORHOGO", "DATE_CREAT": 2008.0, "MAJ": "OCHA-CI", "DATE_MAJ": 2012, "PCODES": "OCHA-CI", "PCODE3": "CIV010103", "REGION": "BAGOUE", "CHEF__LIEU": "BOUNDIALI" }, "geometry": { "type": "Point", "coordinates": [ 117751.3125, 1054108.625 ] } },
{ "type": "Feature", "properties": { "X_COORD": 125812.0, "Y_COORD": 1095910.0, "NOM": "Kouto", "DEPARTEMEN": "KOUTO", "PCODE1": "CIV01", "PCODE2": "CIV0101", "PAYS": "COTE D'VOIRE", "AUTEUR": "CNTIG", "DISTRICT": "SAVANES", "CL_DISTRIC": "KORHOGO", "DATE_CREAT": 2008.0, "MAJ": "OCHA-CI", "DATE_MAJ": 2012, "PCODES": "OCHA-CI", "PCODE3": "CIV010102", "REGION": "BAGOUE", "CHEF__LIEU": "BOUNDIALI" }, "geometry": { "type": "Point", "coordinates": [ 125812.203125, 1095907.5 ] } },
{ "type": "Feature", "properties": { "X_COORD": 263212.0, "Y_COORD": 1102430.0, "NOM": "Ouangolodougou", "DEPARTEMEN": "OUANGOLODOUGOU", "PCODE1": "CIV01", "PCODE2": "CIV0103", "PAYS": "COTE D'VOIRE", "AUTEUR": "CNTIG", "DISTRICT": "SAVANES", "CL_DISTRIC": "KORHOGO", "DATE_CREAT": 2008.0, "MAJ": "OCHA-CI", "DATE_MAJ": 2012, "PCODES": "OCHA-CI", "PCODE3": "CIV010301", "REGION": "TCHOLOGO", "CHEF__LIEU": "FERKESSEDOUGOU" }, "geometry": { "type": "Point", "coordinates": [ 263211.875, 1102433.0 ] } },
{ "type": "Feature", "properties": { "X_COORD": 194593.0, "Y_COORD": 1003260.0, "NOM": "Dikodougou", "DEPARTEMEN": "DIKODOUGOU", "PCODE1": "CIV01", "PCODE2": "CIV0102", "PAYS": "COTE D'VOIRE", "AUTEUR": "CNTIG", "DISTRICT": "SAVANES", "CL_DISTRIC": "KORHOGO", "DATE_CREAT": 2008.0, "MAJ": "OCHA-CI", "DATE_MAJ": 2012, "PCODES": "OCHA-CI", "PCODE3": "CIV010203", "REGION": "PORO", "CHEF__LIEU": "KORHOGO" }, "geometry": { "type": "Point", "coordinates": [ 194593.0, 1003263.0 ] } },
{ "type": "Feature", "properties": { "X_COORD": 238147.0, "Y_COORD": 1060210.0, "NOM": "Sinematiali", "DEPARTEMEN": "SINEMATIALI", "PCODE1": "CIV01", "PCODE2": "CIV0102", "PAYS": "COTE D'VOIRE", "AUTEUR": "CNTIG", "DISTRICT": "SAVANES", "CL_DISTRIC": "KORHOGO", "DATE_CREAT": 2008.0, "MAJ": "OCHA-CI", "DATE_MAJ": 2012, "PCODES": "OCHA-CI", "PCODE3": "CIV010202", "REGION": "PORO", "CHEF__LIEU": "KORHOGO" }, "geometry": { "type": "Point", "coordinates": [ 238147.0, 1060213.0 ] } },
{ "type": "Feature", "properties": { "X_COORD": 211004.0, "Y_COORD": 1046480.0, "NOM": "Korhogo", "DEPARTEMEN": "KORHOGO", "PCODE1": "CIV01", "PCODE2": "CIV0102", "PAYS": "COTE D'VOIRE", "AUTEUR": "CNTIG", "DISTRICT": "SAVANES", "CL_DISTRIC": "KORHOGO", "DATE_CREAT": 2008.0, "MAJ": "OCHA-CI", "DATE_MAJ": 2012, "PCODES": "OCHA-CI", "PCODE3": "CIV010201", "REGION": "PORO", "CHEF__LIEU": "KORHOGO" }, "geometry": { "type": "Point", "coordinates": [ 211004.0, 1046475.0 ] } },
{ "type": "Feature", "properties": { "X_COORD": 125819.0, "Y_COORD": 1159980.0, "NOM": "Tengrela", "DEPARTEMEN": "TENGRELA", "PCODE1": "CIV01", "PCODE2": "CIV0101", "PAYS": "COTE D'VOIRE", "AUTEUR": "CNTIG", "DISTRICT": "SAVANES", "CL_DISTRIC": "KORHOGO", "DATE_CREAT": 2008.0, "MAJ": "OCHA-CI", "DATE_MAJ": 2012, "PCODES": "OCHA-CI", "PCODE3": "CIV010101", "REGION": "BAGOUE", "CHEF__LIEU": "BOUNDIALI" }, "geometry": { "type": "Point", "coordinates": [ 125818.75, 1159982.75 ] } },
{ "type": "Feature", "properties": { "X_COORD": 202905.0, "Y_COORD": 647438.0, "NOM": "Lakota", "DEPARTEMEN": "LAKOTA", "PCODE1": "CIV11", "PCODE2": "CIV1102", "PAYS": "COTE D'VOIRE", "AUTEUR": "CNTIG", "DISTRICT": "GOH-DJIBOUA", "CL_DISTRIC": "GAGNOA", "DATE_CREAT": 2008.0, "MAJ": "OCHA-CI", "DATE_MAJ": 2012, "PCODES": "OCHA-CI", "PCODE3": "CIV110201", "REGION": "LOH-DJIBOUA", "CHEF__LIEU": "DIVO" }, "geometry": { "type": "Point", "coordinates": [ 202905.4375, 647438.125 ] } },
{ "type": "Feature", "properties": { "X_COORD": 239259.0, "Y_COORD": 646054.0, "NOM": "Divo", "DEPARTEMEN": "DIVO", "PCODE1": "CIV11", "PCODE2": "CIV1102", "PAYS": "COTE D'VOIRE", "AUTEUR": "CNTIG", "DISTRICT": "GOH-DJIBOUA", "CL_DISTRIC": "GAGNOA", "DATE_CREAT": 2008.0, "MAJ": "OCHA-CI", "DATE_MAJ": 2012, "PCODES": "OCHA-CI", "PCODE3": "CIV110202", "REGION": "LOH-DJIBOUA", "CHEF__LIEU": "DIVO" }, "geometry": { "type": "Point", "coordinates": [ 239259.203125, 646054.375 ] } },
{ "type": "Feature", "properties": { "X_COORD": 213801.0, "Y_COORD": 566598.0, "NOM": "Fresco", "DEPARTEMEN": "FRESCO", "PCODE1": "CIV12", "PCODE2": "CIV1203", "PAYS": "COTE D'VOIRE", "AUTEUR": "CNTIG", "DISTRICT": "BAS-SASSANDRA", "CL_DISTRIC": "SAN PEDRO", "DATE_CREAT": 2008.0, "MAJ": "OCHA-CI", "DATE_MAJ": 2012, "PCODES": "OCHA-CI", "PCODE3": "CIV120302", "REGION": "GBOKLE", "CHEF__LIEU": "SASSANDRA" }, "geometry": { "type": "Point", "coordinates": [ 213801.40625, 566598.125 ] } },
{ "type": "Feature", "properties": { "X_COORD": 251526.0, "Y_COORD": 610659.0, "NOM": "Guitry", "DEPARTEMEN": "GUITRY", "PCODE1": "CIV11", "PCODE2": "CIV1102", "PAYS": "COTE D'VOIRE", "AUTEUR": "CNTIG", "DISTRICT": "GOH-DJIBOUA", "CL_DISTRIC": "GAGNOA", "DATE_CREAT": 2008.0, "MAJ": "OCHA-CI", "DATE_MAJ": 2012, "PCODES": "OCHA-CI", "PCODE3": "CIV110203", "REGION": "LOH-DJIBOUA", "CHEF__LIEU": "DIVO" }, "geometry": { "type": "Point", "coordinates": [ 251526.046875, 610658.625 ] } },
{ "type": "Feature", "properties": { "X_COORD": 476392.0, "Y_COORD": 604520.0, "NOM": "Aboisso", "DEPARTEMEN": "ABOISSO", "PCODE1": "CIV09", "PCODE2": "CIV0902", "PAYS": "COTE D'VOIRE", "AUTEUR": "CNTIG", "DISTRICT": "COMOE", "CL_DISTRIC": "ABENGOUROU", "DATE_CREAT": 2008.0, "MAJ": "OCHA-CI", "DATE_MAJ": 2012, "PCODES": "OCHA-CI", "PCODE3": "CIV090201", "REGION": "SUD-COMOE", "CHEF__LIEU": "ABOISSO" }, "geometry": { "type": "Point", "coordinates": [ 476391.8125, 604519.9375 ] } },
{ "type": "Feature", "properties": { "X_COORD": 466800.0, "Y_COORD": 583622.0, "NOM": "Adiaké", "DEPARTEMEN": "ADIAKE", "PCODE1": "CIV09", "PCODE2": "CIV0902", "PAYS": "COTE D'VOIRE", "AUTEUR": "CNTIG", "DISTRICT": "COMOE", "CL_DISTRIC": "ABENGOUROU", "DATE_CREAT": 2008.0, "MAJ": "OCHA-CI", "DATE_MAJ": 2012, "PCODES": "OCHA-CI", "PCODE3": "CIV090203", "REGION": "SUD-COMOE", "CHEF__LIEU": "ABOISSO" }, "geometry": { "type": "Point", "coordinates": [ 466799.625, 583621.625 ] } },
{ "type": "Feature", "properties": { "X_COORD": 497708.0, "Y_COORD": 567027.0, "NOM": "Tiapoum", "DEPARTEMEN": "TIAPOUM", "PCODE1": "CIV09", "PCODE2": "CIV0902", "PAYS": "COTE D'VOIRE", "AUTEUR": "CNTIG", "DISTRICT": "COMOE", "CL_DISTRIC": "ABENGOUROU", "DATE_CREAT": 2008.0, "MAJ": "OCHA-CI", "DATE_MAJ": 2012, "PCODES": "OCHA-CI", "PCODE3": "CIV090204", "REGION": "SUD-COMOE", "CHEF__LIEU": "ABOISSO" }, "geometry": { "type": "Point", "coordinates": [ 497708.0625, 567027.25 ] } },
{ "type": "Feature", "properties": { "X_COORD": 277247.0, "Y_COORD": 852285.0, "NOM": "Bouake", "DEPARTEMEN": "BOUAKE", "PCODE1": "CIV04", "PCODE2": "CIV0402", "PAYS": "COTE D'VOIRE", "AUTEUR": "CNTIG", "DISTRICT": "VALLE DU BANDAMA", "CL_DISTRIC": "BOUAKE", "DATE_CREAT": 2008.0, "MAJ": "OCHA-CI", "DATE_MAJ": 2012, "PCODES": "OCHA-CI", "PCODE3": "CIV040203", "REGION": "GBEKE", "CHEF__LIEU": "BOUAKE" }, "geometry": { "type": "Point", "coordinates": [ 277246.75, 852285.4375 ] } },
{ "type": "Feature", "properties": { "X_COORD": 245025.0, "Y_COORD": 870171.0, "NOM": "Botro", "DEPARTEMEN": "BOTRO", "PCODE1": "CIV04", "PCODE2": "CIV0402", "PAYS": "COTE D'VOIRE", "AUTEUR": "CNTIG", "DISTRICT": "VALLE DU BANDAMA", "CL_DISTRIC": "BOUAKE", "DATE_CREAT": 2008.0, "MAJ": "OCHA-CI", "DATE_MAJ": 2012, "PCODES": "OCHA-CI", "PCODE3": "CIV040201", "REGION": "GBEKE", "CHEF__LIEU": "BOUAKE" }, "geometry": { "type": "Point", "coordinates": [ 245024.78125, 870171.25 ] } },
{ "type": "Feature", "properties": { "X_COORD": 247606.0, "Y_COORD": 958493.0, "NOM": "Niakaramandougou", "DEPARTEMEN": "NIAKARAMADOUGOU", "PCODE1": "CIV04", "PCODE2": "CIV0401", "PAYS": "COTE D'VOIRE", "AUTEUR": "CNTIG", "DISTRICT": "VALLE DU BANDAMA", "CL_DISTRIC": "BOUAKE", "DATE_CREAT": 2008.0, "MAJ": "OCHA-CI", "DATE_MAJ": 2012, "PCODES": "OCHA-CI", "PCODE3": "CIV040101", "REGION": "HAMBOL", "CHEF__LIEU": "KATIOLA" }, "geometry": { "type": "Point", "coordinates": [ 247605.796875, 958492.75 ] } },
{ "type": "Feature", "properties": { "X_COORD": 268157.0, "Y_COORD": 900492.0, "NOM": "Katiola", "DEPARTEMEN": "KATIOLA", "PCODE1": "CIV04", "PCODE2": "CIV0401", "PAYS": "COTE D'VOIRE", "AUTEUR": "CNTIG", "DISTRICT": "VALLE DU BANDAMA", "CL_DISTRIC": "BOUAKE", "DATE_CREAT": 2008.0, "MAJ": "OCHA-CI", "DATE_MAJ": 2012, "PCODES": "OCHA-CI", "PCODE3": "CIV040103", "REGION": "HAMBOL", "CHEF__LIEU": "KATIOLA" }, "geometry": { "type": "Point", "coordinates": [ 268157.375, 900491.625 ] } },
{ "type": "Feature", "properties": { "X_COORD": 343571.0, "Y_COORD": 924503.0, "NOM": "Dabakala", "DEPARTEMEN": "DABAKALA", "PCODE1": "CIV04", "PCODE2": "CIV0401", "PAYS": "COTE D'VOIRE", "AUTEUR": "CNTIG", "DISTRICT": "VALLE DU BANDAMA", "CL_DISTRIC": "BOUAKE", "DATE_CREAT": 2008.0, "MAJ": "OCHA-CI", "DATE_MAJ": 2012, "PCODES": "OCHA-CI", "PCODE3": "CIV040102", "REGION": "HAMBOL", "CHEF__LIEU": "KATIOLA" }, "geometry": { "type": "Point", "coordinates": [ 343571.15625, 924502.8125 ] } },
{ "type": "Feature", "properties": { "X_COORD": 148239.0, "Y_COORD": 893492.0, "NOM": "Mankono", "DEPARTEMEN": "MANKONO", "PCODE1": "CIV05", "PCODE2": "CIV0501", "PAYS": "COTE D'VOIRE", "AUTEUR": "CNTIG", "DISTRICT": "WOROBA", "CL_DISTRIC": "SEGUELA", "DATE_CREAT": 2008.0, "MAJ": "OCHA-CI", "DATE_MAJ": 2012, "PCODES": "OCHA-CI", "PCODE3": "CIV050101", "REGION": "BERE", "CHEF__LIEU": "MANKONO" }, "geometry": { "type": "Point", "coordinates": [ 148239.234375, 893491.5 ] } },
{ "type": "Feature", "properties": { "X_COORD": 103120.0, "Y_COORD": 940274.0, "NOM": "Kani", "DEPARTEMEN": "KANI", "PCODE1": "CIV05", "PCODE2": "CIV0503", "PAYS": "COTE D'VOIRE", "AUTEUR": "CNTIG", "DISTRICT": "WOROBA", "CL_DISTRIC": "SEGUELA", "DATE_CREAT": 2008.0, "MAJ": "OCHA-CI", "DATE_MAJ": 2012, "PCODES": "OCHA-CI", "PCODE3": "CIV050301", "REGION": "WORODOUGOU", "CHEF__LIEU": "SEGUELA" }, "geometry": { "type": "Point", "coordinates": [ 103119.5546875, 940274.375 ] } },
{ "type": "Feature", "properties": { "X_COORD": 95856.8, "Y_COORD": 882094.0, "NOM": "Seguela", "DEPARTEMEN": "SEGUELA", "PCODE1": "CIV05", "PCODE2": "CIV0503", "PAYS": "COTE D'VOIRE", "AUTEUR": "CNTIG", "DISTRICT": "WOROBA", "CL_DISTRIC": "SEGUELA", "DATE_CREAT": 2008.0, "MAJ": "OCHA-CI", "DATE_MAJ": 2012, "PCODES": "OCHA-CI", "PCODE3": "CIV050302", "REGION": "WORODOUGOU", "CHEF__LIEU": "SEGUELA" }, "geometry": { "type": "Point", "coordinates": [ 95856.796875, 882094.0 ] } },
{ "type": "Feature", "properties": { "X_COORD": 522349.0, "Y_COORD": 889199.0, "NOM": "Bondoukou", "DEPARTEMEN": "BONDOUKOU", "PCODE1": "CIV03", "PCODE2": "CIV0302", "PAYS": "COTE D'VOIRE", "AUTEUR": "CNTIG", "DISTRICT": "ZANZAN", "CL_DISTRIC": "BONDOUKOU", "DATE_CREAT": 2008.0, "MAJ": "OCHA-CI", "DATE_MAJ": 2012, "PCODES": "OCHA-CI", "PCODE3": "CIV030201", "REGION": "GONTOUGO", "CHEF__LIEU": "BONDOUKOU" }, "geometry": { "type": "Point", "coordinates": [ 522348.5, 889199.1875 ] } },
{ "type": "Feature", "properties": { "X_COORD": 435462.0, "Y_COORD": 879117.0, "NOM": "Sandegue", "DEPARTEMEN": "SANDEGUE", "PCODE1": "CIV03", "PCODE2": "CIV0302", "PAYS": "COTE D'VOIRE", "AUTEUR": "CNTIG", "DISTRICT": "ZANZAN", "CL_DISTRIC": "BONDOUKOU", "DATE_CREAT": 2008.0, "MAJ": "OCHA-CI", "DATE_MAJ": 2012, "PCODES": "OCHA-CI", "PCODE3": "CIV030202", "REGION": "GONTOUGO", "CHEF__LIEU": "BONDOUKOU" }, "geometry": { "type": "Point", "coordinates": [ 435461.9375, 879116.8125 ] } },
{ "type": "Feature", "properties": { "X_COORD": 462884.0, "Y_COORD": 1084090.0, "NOM": "Doropo", "DEPARTEMEN": "DOROPO", "PCODE1": "CIV03", "PCODE2": "CIV0301", "PAYS": "COTE D'VOIRE", "AUTEUR": "CNTIG", "DISTRICT": "ZANZAN", "CL_DISTRIC": "BONDOUKOU", "DATE_CREAT": 2008.0, "MAJ": "OCHA-CI", "DATE_MAJ": 2012, "PCODES": "OCHA-CI", "PCODE3": "CIV030102", "REGION": "BOUNKANI", "CHEF__LIEU": "BOUNA" }, "geometry": { "type": "Point", "coordinates": [ 462884.0, 1084093.0 ] } },
{ "type": "Feature", "properties": { "X_COORD": 427656.0, "Y_COORD": 1061760.0, "NOM": "Tehini", "DEPARTEMEN": "TEHINI", "PCODE1": "CIV03", "PCODE2": "CIV0301", "PAYS": "COTE D'VOIRE", "AUTEUR": "CNTIG", "DISTRICT": "ZANZAN", "CL_DISTRIC": "BONDOUKOU", "DATE_CREAT": 2008.0, "MAJ": "OCHA-CI", "DATE_MAJ": 2012, "PCODES": "OCHA-CI", "PCODE3": "CIV030101", "REGION": "BOUNKANI", "CHEF__LIEU": "BOUNA" }, "geometry": { "type": "Point", "coordinates": [ 427656.0, 1061759.0 ] } },
{ "type": "Feature", "properties": { "X_COORD": 447677.0, "Y_COORD": 934098.0, "NOM": "Nassian", "DEPARTEMEN": "NASSIAN", "PCODE1": "CIV03", "PCODE2": "CIV0301", "PAYS": "COTE D'VOIRE", "AUTEUR": "CNTIG", "DISTRICT": "ZANZAN", "CL_DISTRIC": "BONDOUKOU", "DATE_CREAT": 2008.0, "MAJ": "OCHA-CI", "DATE_MAJ": 2012, "PCODES": "OCHA-CI", "PCODE3": "CIV030104", "REGION": "BOUNKANI", "CHEF__LIEU": "BOUNA" }, "geometry": { "type": "Point", "coordinates": [ 447677.0, 934098.0 ] } },
{ "type": "Feature", "properties": { "X_COORD": 472341.0, "Y_COORD": 827341.0, "NOM": "Koun Fao", "DEPARTEMEN": "KOUN-FAO", "PCODE1": "CIV03", "PCODE2": "CIV0302", "PAYS": "COTE D'VOIRE", "AUTEUR": "CNTIG", "DISTRICT": "ZANZAN", "CL_DISTRIC": "BONDOUKOU", "DATE_CREAT": 2008.0, "MAJ": "OCHA-CI", "DATE_MAJ": 2012, "PCODES": "OCHA-CI", "PCODE3": "CIV030205", "REGION": "GONTOUGO", "CHEF__LIEU": "BONDOUKOU" }, "geometry": { "type": "Point", "coordinates": [ 472341.375, 827341.4375 ] } },
{ "type": "Feature", "properties": { "X_COORD": 481486.0, "Y_COORD": 862014.0, "NOM": "Tanda", "DEPARTEMEN": "TANDA", "PCODE1": "CIV03", "PCODE2": "CIV0302", "PAYS": "COTE D'VOIRE", "AUTEUR": "CNTIG", "DISTRICT": "ZANZAN", "CL_DISTRIC": "BONDOUKOU", "DATE_CREAT": 2008.0, "MAJ": "OCHA-CI", "DATE_MAJ": 2012, "PCODES": "OCHA-CI", "PCODE3": "CIV030203", "REGION": "GONTOUGO", "CHEF__LIEU": "BONDOUKOU" }, "geometry": { "type": "Point", "coordinates": [ 481486.4375, 862013.6875 ] } },
{ "type": "Feature", "properties": { "X_COORD": 498586.0, "Y_COORD": 834939.0, "NOM": "Transua", "DEPARTEMEN": "TRANSUA", "PCODE1": "CIV03", "PCODE2": "CIV0302", "PAYS": "COTE D'VOIRE", "AUTEUR": "CNTIG", "DISTRICT": "ZANZAN", "CL_DISTRIC": "BONDOUKOU", "DATE_CREAT": 2008.0, "MAJ": "OCHA-CI", "DATE_MAJ": 2012, "PCODES": "OCHA-CI", "PCODE3": "CIV030204", "REGION": "GONTOUGO", "CHEF__LIEU": "BONDOUKOU" }, "geometry": { "type": "Point", "coordinates": [ 498585.9375, 834939.1875 ] } },
{ "type": "Feature", "properties": { "X_COORD": 427539.0, "Y_COORD": 683425.0, "NOM": "Yakasse attobrou", "DEPARTEMEN": "YAKASSE-ATTOBROU", "PCODE1": "CIV13", "PCODE2": "CIV1301", "PAYS": "COTE D'VOIRE", "AUTEUR": "CNTIG", "DISTRICT": "LAGUNES", "CL_DISTRIC": "AGBOVILLE", "DATE_CREAT": 2008.0, "MAJ": "OCHA-CI", "DATE_MAJ": 2012, "PCODES": "OCHA-CI", "PCODE3": "CIV130103", "REGION": "ME", "CHEF__LIEU": "ADZOPE" }, "geometry": { "type": "Point", "coordinates": [ 427539.25, 683425.25 ] } },
{ "type": "Feature", "properties": { "X_COORD": 187282.0, "Y_COORD": 862520.0, "NOM": "Kounahiri", "DEPARTEMEN": "KOUNAHIRI", "PCODE1": "CIV05", "PCODE2": "CIV0501", "PAYS": "COTE D'VOIRE", "AUTEUR": "CNTIG", "DISTRICT": "WOROBA", "CL_DISTRIC": "SEGUELA", "DATE_CREAT": 2008.0, "MAJ": "OCHA-CI", "DATE_MAJ": 2012, "PCODES": "OCHA-CI", "PCODE3": "CIV050102", "REGION": "BERE", "CHEF__LIEU": "MANKONO" }, "geometry": { "type": "Point", "coordinates": [ 187282.359375, 862520.4375 ] } },
{ "type": "Feature", "properties": { "X_COORD": 159608.0, "Y_COORD": 629781.0, "NOM": "Guéyo", "DEPARTEMEN": "GUEYO", "PCODE1": "CIV12", "PCODE2": "CIV1201", "PAYS": "COTE D'VOIRE", "AUTEUR": "CNTIG", "DISTRICT": "BAS-SASSANDRA", "CL_DISTRIC": "SAN PEDRO", "DATE_CREAT": 2008.0, "MAJ": "OCHA-CI", "DATE_MAJ": 2012, "PCODES": "OCHA-CI", "PCODE3": "CIV120102", "REGION": "NAWA", "CHEF__LIEU": "SOUBRE" }, "geometry": { "type": "Point", "coordinates": [ 159607.53125, 629781.25 ] } },
{ "type": "Feature", "properties": { "X_COORD": 265935.0, "Y_COORD": 749573.0, "NOM": "Attiegouakro", "DEPARTEMEN": "ATTIEGOUAKRO", "PCODE1": "CIV10", "PCODE2": "CIV1001", "PAYS": "COTE D'VOIRE", "AUTEUR": "CNTIG", "DISTRICT": "DISTRICT AUTONOME DE YAMOUSSOUKRO", "CL_DISTRIC": "YAMOUSSOUKRO", "DATE_CREAT": 2008.0, "MAJ": "OCHA-CI", "DATE_MAJ": 2012, "PCODES": "OCHA-CI", "PCODE3": "CIV100101", "REGION": "DISTRICT AUTONOME DE YAMOUSSOUKRO", "CHEF__LIEU": "YAMOUSSOUKRO" }, "geometry": { "type": "Point", "coordinates": [ 265934.5, 749572.5 ] } },
{ "type": "Feature", "properties": { "X_COORD": 4341.97, "Y_COORD": 1089420.0, "NOM": "Kaniasso", "DEPARTEMEN": "KANIASSO", "PCODE1": "CIV02", "PCODE2": "CIV0201", "PAYS": "COTE D'VOIRE", "AUTEUR": "CNTIG", "DISTRICT": "DENGUELE", "CL_DISTRIC": "ODIENNE", "DATE_CREAT": 2008.0, "MAJ": "OCHA-CI", "DATE_MAJ": 2012, "PCODES": "OCHA-CI", "PCODE3": "CIV020102", "REGION": "FOLON", "CHEF__LIEU": "MINIGNAN" }, "geometry": { "type": "Point", "coordinates": [ 4341.966796875, 1089420.25 ] } },
{ "type": "Feature", "properties": { "X_COORD": 258597.0, "Y_COORD": 1061810.0, "NOM": "Ferkessédougou", "DEPARTEMEN": "FERKESSEDOUGOU", "PCODE1": "CIV01", "PCODE2": "CIV0103", "PAYS": "COTE D'VOIRE", "AUTEUR": "CNTIG", "DISTRICT": "SAVANES", "CL_DISTRIC": "KORHOGO", "DATE_CREAT": 2008.0, "MAJ": "OCHA-CI", "DATE_MAJ": 2012, "PCODES": "OCHA-CI", "PCODE3": "CIV010302", "REGION": "TCHOLOGO", "CHEF__LIEU": "FERKESSEDOUGOU" }, "geometry": { "type": "Point", "coordinates": [ 258596.546875, 1061807.375 ] } },
{ "type": "Feature", "properties": { "X_COORD": 402030.0, "Y_COORD": 705497.0, "NOM": "Akoupe", "DEPARTEMEN": "AKOUPE", "PCODE1": "CIV13", "PCODE2": "CIV1301", "PAYS": "COTE D'VOIRE", "AUTEUR": "CNTIG", "DISTRICT": "LAGUNES", "CL_DISTRIC": "AGBOVILLE", "DATE_CREAT": 2008.0, "MAJ": "OCHA-CI", "DATE_MAJ": 2012, "PCODES": "OCHA-CI", "PCODE3": "CIV130101", "REGION": "ME", "CHEF__LIEU": "ADZOPE" }, "geometry": { "type": "Point", "coordinates": [ 402030.3125, 705497.3125 ] } },
{ "type": "Feature", "properties": { "X_COORD": 393716.0, "Y_COORD": 779919.0, "NOM": "Daoukro", "DEPARTEMEN": "DAOUKRO", "PCODE1": "CIV07", "PCODE2": "CIV0701", "PAYS": "COTE D'VOIRE", "AUTEUR": "CNTIG", "DISTRICT": "LACS", "CL_DISTRIC": "DIMBOKRO", "DATE_CREAT": 2008.0, "MAJ": "OCHA-CI", "DATE_MAJ": 2012, "PCODES": "OCHA-CI", "PCODE3": "CIV070103", "REGION": "IFFOU", "CHEF__LIEU": "DAOUKRO" }, "geometry": { "type": "Point", "coordinates": [ 393715.75, 779918.875 ] } },
{ "type": "Feature", "properties": { "X_COORD": 391364.0, "Y_COORD": 846456.0, "NOM": "Prikro", "DEPARTEMEN": "PRIKRO", "PCODE1": "CIV07", "PCODE2": "CIV0701", "PAYS": "COTE D'VOIRE", "AUTEUR": "CNTIG", "DISTRICT": "LACS", "CL_DISTRIC": "DIMBOKRO", "DATE_CREAT": 2008.0, "MAJ": "OCHA-CI", "DATE_MAJ": 2012, "PCODES": "OCHA-CI", "PCODE3": "CIV070101", "REGION": "IFFOU", "CHEF__LIEU": "DAOUKRO" }, "geometry": { "type": "Point", "coordinates": [ 391363.96875, 846456.375 ] } },
{ "type": "Feature", "properties": { "X_COORD": 216041.0, "Y_COORD": 850381.0, "NOM": "Béoumi", "DEPARTEMEN": "BEOUMI", "PCODE1": "CIV04", "PCODE2": "CIV0402", "PAYS": "COTE D'VOIRE", "AUTEUR": "CNTIG", "DISTRICT": "VALLE DU BANDAMA", "CL_DISTRIC": "BOUAKE", "DATE_CREAT": 2008.0, "MAJ": "OCHA-CI", "DATE_MAJ": 2012, "PCODES": "OCHA-CI", "PCODE3": "CIV040202", "REGION": "GBEKE", "CHEF__LIEU": "BOUAKE" }, "geometry": { "type": "Point", "coordinates": [ 216041.328125, 850381.25 ] } },
{ "type": "Feature", "properties": { "X_COORD": 247091.0, "Y_COORD": 824918.0, "NOM": "Sakassou", "DEPARTEMEN": "SAKASSOU", "PCODE1": "CIV04", "PCODE2": "CIV0402", "PAYS": "COTE D'VOIRE", "AUTEUR": "CNTIG", "DISTRICT": "VALLE DU BANDAMA", "CL_DISTRIC": "BOUAKE", "DATE_CREAT": 2008.0, "MAJ": "OCHA-CI", "DATE_MAJ": 2012, "PCODES": "OCHA-CI", "PCODE3": "CIV040204", "REGION": "GBEKE", "CHEF__LIEU": "BOUAKE" }, "geometry": { "type": "Point", "coordinates": [ 247090.53125, 824918.3125 ] } },
{ "type": "Feature", "properties": { "X_COORD": 500011.0, "Y_COORD": 1024880.0, "NOM": "Bouna", "DEPARTEMEN": "BOUNA", "PCODE1": "CIV03", "PCODE2": "CIV0301", "PAYS": "COTE D'VOIRE", "AUTEUR": "CNTIG", "DISTRICT": "ZANZAN", "CL_DISTRIC": "BONDOUKOU", "DATE_CREAT": 2008.0, "MAJ": "OCHA-CI", "DATE_MAJ": 2012, "PCODES": "OCHA-CI", "PCODE3": "CIV030103", "REGION": "BOUNKANI", "CHEF__LIEU": "BOUNA" }, "geometry": { "type": "Point", "coordinates": [ 500011.0, 1024875.0 ] } },
{ "type": "Feature", "properties": { "X_COORD": 419208.0, "Y_COORD": 577164.0, "NOM": "Grand-Bassam", "DEPARTEMEN": "GRAND-BASSAM", "PCODE1": "CIV09", "PCODE2": "CIV0902", "PAYS": "COTE D'VOIRE", "AUTEUR": "CNTIG", "DISTRICT": "COMOE", "CL_DISTRIC": "ABENGOUROU", "DATE_CREAT": 2008.0, "MAJ": "OCHA-CI", "DATE_MAJ": 2012, "PCODES": "OCHA-CI", "PCODE3": "CIV090202", "REGION": "SUD-COMOE", "CHEF__LIEU": "ABOISSO" }, "geometry": { "type": "Point", "coordinates": [ 415970.718750000116415, 574375.874999952036887 ] } }
]
}
